City_ID,City,Country,Lat,Lng,Max_Temp,Humidity,Cloudiness,Wind_Speed,Current_Description
0,Mataura,NZ,-46.1927,168.8643,59.41,52,33,5.19,scattered clouds
1,Vaini,TO,-21.2,-175.2,75.36,94,100,9.22,moderate rain
2,Selikhino,RU,50.3672,137.4996,2.43,91,100,12.91,overcast clouds
3,Punta Arenas,CL,-53.15,-70.9167,46.51,71,75,9.22,light rain
4,Arraial Do Cabo,BR,-22.9661,-42.0278,72.3,93,100,2.28,overcast clouds
5,Cascais,PT,38.6979,-9.4215,62.51,95,100,11.99,overcast clouds
6,Botevgrad,BG,42.9,23.7833,40.53,83,12,5.12,few clouds
7,Valparaiso,CL,-33.0393,-71.6273,60.44,88,100,9.22,overcast clouds
8,Lebu,CL,-37.6167,-73.65,56.46,92,22,20.29,few clouds
9,Erseke,AL,40.3378,20.6789,38.34,92,89,1.59,overcast clouds
10,Puerto Ayora,EC,-0.7393,-90.3518,71.55,96,51,4.59,broken clouds
11,Busselton,AU,-33.65,115.3333,83.32,41,0,15.48,clear sky
12,Castro,BR,-24.7911,-50.0119,60.13,95,96,7.63,overcast clouds
13,Ostrovnoy,RU,68.0531,39.5131,16.0,90,26,15.39,scattered clouds
14,Port Elizabeth,ZA,-33.918,25.5701,70.32,59,29,4.0,scattered clouds
15,Ushuaia,AR,-54.8,-68.3,44.26,76,100,19.57,light rain
16,Mar Del Plata,AR,-38.0023,-57.5575,66.09,69,99,8.01,overcast clouds
17,Maridi,SS,4.9158,29.4742,81.61,28,11,7.49,few clouds
18,Ponta Do Sol,PT,32.6667,-17.1,67.12,28,83,6.15,broken clouds
19,Iqaluit,CA,63.7506,-68.5145,-21.51,89,6,13.82,clear sky
20,Necochea,AR,-38.5473,-58.7368,62.11,53,100,8.1,overcast clouds
21,Hwange,ZW,-18.3693,26.5019,83.57,50,83,8.61,broken clouds
22,Beringovskiy,RU,63.05,179.3167,-9.72,88,100,16.82,overcast clouds
23,Praia Da Vitoria,PT,38.7333,-27.0667,57.76,98,100,22.28,moderate rain
24,Yago,MX,21.8333,-105.0667,65.71,62,43,2.68,scattered clouds
25,Coihaique,CL,-45.5752,-72.0662,48.81,61,0,3.44,clear sky
26,Butterworth,MY,5.3991,100.3638,89.64,40,20,11.5,few clouds
27,Qaanaaq,GL,77.484,-69.3632,-23.55,72,54,6.55,broken clouds
28,Kholtoson,RU,50.2981,103.3097,8.98,81,28,2.28,scattered clouds
29,Dikson,RU,73.5069,80.5464,-14.69,97,100,20.0,overcast clouds
30,Cape Town,ZA,-33.9258,18.4232,71.11,53,10,13.0,clear sky
31,Hermanus,ZA,-34.4187,19.2345,67.8,50,70,18.61,broken clouds
32,Barrow,US,71.2906,-156.7887,-2.18,78,100,13.8,light snow
33,Laguna,US,38.421,-121.4238,52.05,94,100,20.71,mist
34,Rikitea,PF,-23.1203,-134.9692,77.56,73,75,4.79,broken clouds
35,Kodiak,US,57.79,-152.4072,36.91,100,100,0.0,light rain
36,Araguacu,BR,-12.9306,-49.8264,70.36,97,99,3.24,overcast clouds
37,Henin-Beaumont,FR,50.4167,2.9333,45.16,90,100,14.97,overcast clouds
38,Newport,GB,51.5877,-2.9984,48.69,93,100,23.53,moderate rain
39,East London,ZA,-33.0153,27.9116,68.25,49,28,5.01,scattered clouds
40,Cidreira,BR,-30.1811,-50.2056,65.71,76,0,8.95,clear sky
41,Pevek,RU,69.7008,170.3133,-31.11,100,100,2.82,overcast clouds
42,Cockburn Town,TC,21.4612,-71.1419,78.37,76,0,22.26,clear sky
43,Altay,CN,47.8667,88.1167,18.55,85,100,2.01,overcast clouds
44,Kismayo,SO,-0.3582,42.5454,83.8,60,4,18.07,clear sky
45,Roma,US,43.2128,-75.4557,47.88,77,100,6.91,overcast clouds
46,Alindao,CF,5.0267,21.2088,79.11,31,92,4.85,overcast clouds
47,Albany,US,42.6001,-73.9662,42.53,68,100,2.33,overcast clouds
48,Kavieng,PG,-2.5744,150.7967,80.02,79,97,9.19,moderate rain
49,Provideniya,RU,64.3833,-173.3,-6.83,81,89,11.83,overcast clouds
50,Kapaa,US,22.0752,-159.319,71.92,83,75,8.05,broken clouds
51,Avarua,CK,-21.2078,-159.775,78.85,89,75,3.44,light rain
52,Bluff,NZ,-46.6,168.3333,55.06,62,83,11.14,broken clouds
53,Saint-Augustin,CA,51.226,-58.6502,6.39,90,99,4.81,overcast clouds
54,Sabha,LY,27.0377,14.4283,51.62,44,0,6.02,clear sky
55,Jamestown,US,42.097,-79.2353,53.24,71,100,10.36,overcast clouds
56,Hami,CN,42.8,93.45,23.52,39,10,2.91,clear sky
57,Velsk,RU,61.0701,42.0983,-9.11,100,98,2.06,overcast clouds
58,Victoria,HK,22.2855,114.1577,64.2,61,5,15.01,clear sky
59,Tuktoyaktuk,CA,69.4541,-133.0374,-7.64,99,97,6.62,overcast clouds
60,Najran,SA,17.4924,44.1277,59.38,41,100,4.27,overcast clouds
61,Gboko,NG,7.3179,8.9951,70.11,23,70,13.02,broken clouds
62,Nikolskoye,RU,59.7035,30.7861,30.09,96,100,8.5,snow
63,Srednekolymsk,RU,67.45,153.6833,-43.26,100,85,1.61,overcast clouds
64,Lae,PG,-6.7221,146.9847,81.48,76,100,3.06,overcast clouds
65,Yinchuan,CN,38.4681,106.2731,27.0,22,0,1.05,clear sky
66,Saint-Philippe,RE,-21.3585,55.7679,82.11,76,46,4.81,light rain
67,Pietersburg,ZA,-23.9045,29.4688,66.97,74,92,14.79,overcast clouds
68,Urumqi,CN,43.801,87.6005,7.75,85,68,2.24,mist
69,Barranca,PE,-10.75,-77.7667,68.77,84,100,6.91,overcast clouds
70,Anadyr,RU,64.75,177.4833,-17.9,69,0,11.18,clear sky
71,Butaritari,KI,3.0707,172.7902,81.07,78,64,11.88,broken clouds
72,Biltine,TD,14.5333,20.9167,63.81,22,2,15.7,clear sky
73,Tual,ID,-5.6667,132.75,83.8,75,100,20.24,overcast clouds
74,Virginia Beach,US,36.8529,-75.978,48.22,65,0,0.0,clear sky
75,Atuona,PF,-9.8,-139.0333,78.06,77,43,15.68,scattered clouds
76,Santa Marta,CO,11.2408,-74.199,80.89,70,7,11.99,clear sky
77,Minab,IR,27.1467,57.0801,69.37,26,24,8.66,few clouds
78,Sept-Iles,CA,50.2001,-66.3821,17.06,90,100,5.01,light snow
79,Sitka,US,57.0531,-135.33,44.49,57,100,21.85,light rain
80,Thompson,CA,55.7435,-97.8558,0.97,98,92,3.24,overcast clouds
81,Maragogi,BR,-9.0122,-35.2225,76.12,86,9,6.85,clear sky
82,Santa Cruz,BO,-17.8,-63.1667,71.06,73,75,4.61,broken clouds
83,Padang,ID,-0.9492,100.3543,73.45,68,51,6.96,light rain
84,Hilo,US,19.7297,-155.09,71.33,89,100,3.44,overcast clouds
85,Znamenskoye,RU,57.1281,73.8282,-5.17,98,98,1.63,overcast clouds
86,Inhambane,MZ,-23.865,35.3833,84.27,55,66,5.01,broken clouds
87,Hasaki,JP,35.7333,140.8333,54.28,37,96,1.97,overcast clouds
88,Bambous Virieux,MU,-20.3428,57.7575,79.65,64,0,9.57,clear sky
89,Yellowknife,CA,62.456,-114.3525,6.57,84,100,10.0,overcast clouds
90,Basco,PH,20.4487,121.9702,74.82,77,96,28.61,overcast clouds
91,Kodinsk,RU,58.6881,99.1844,-15.38,94,9,3.58,clear sky
92,Torbay,CA,47.6666,-52.7314,23.58,82,96,5.99,overcast clouds
93,Tabas,IR,33.5959,56.9244,51.08,38,0,1.5,clear sky
94,Olinda,BR,-8.0089,-34.8553,80.33,74,40,8.05,scattered clouds
95,Hobart,AU,-42.8794,147.3294,67.26,67,75,17.27,broken clouds
96,Kruisfontein,ZA,-34.0033,24.7314,67.89,43,12,9.35,few clouds
97,Maldonado,UY,-34.6667,-54.9167,60.22,76,0,7.27,clear sky
98,New Norfolk,AU,-42.7826,147.0587,66.92,53,94,3.0,overcast clouds
99,Port Lincoln,AU,-34.7333,135.8667,66.25,61,0,17.54,clear sky
100,Saint-Joseph,RE,-21.3667,55.6167,81.1,76,41,0.67,light rain
101,Shimoda,JP,34.6667,138.95,50.16,58,12,8.14,few clouds
102,Luderitz,NA,-26.6481,15.1594,76.91,40,0,12.15,clear sky
103,Antipino,RU,57.1068,65.7576,-1.91,99,100,2.57,overcast clouds
104,Carnarvon,AU,-24.8667,113.6333,83.28,58,0,25.08,clear sky
105,Acapulco,MX,16.8634,-99.8901,76.82,78,100,2.3,overcast clouds
106,Caxito,AO,-8.5785,13.6643,80.19,73,99,2.75,overcast clouds
107,Mahebourg,MU,-20.4081,57.7,79.52,65,2,7.47,clear sky
108,Faanui,PF,-16.4833,-151.75,80.78,76,99,15.77,overcast clouds
109,Byron Bay,AU,-28.65,153.6167,69.94,87,93,10.67,light rain
110,Waipawa,NZ,-41.4122,175.5153,55.49,80,100,14.05,overcast clouds
111,Ribeira Grande,PT,38.5167,-28.7,59.77,89,100,15.01,overcast clouds
112,Isangel,VU,-19.55,169.2667,81.41,87,100,16.02,overcast clouds
113,Ozieri,IT,40.586,9.0012,47.57,98,100,5.39,overcast clouds
114,Laibin,CN,23.7,109.2667,56.21,43,76,11.32,broken clouds
115,Kolosovka,RU,56.4678,73.611,-2.72,99,100,3.78,overcast clouds
116,Chokurdakh,RU,70.6333,147.9167,-43.42,99,64,5.79,broken clouds
117,Shetpe,KZ,44.1667,52.1167,34.77,65,10,6.35,clear sky
118,Hamilton,US,39.1834,-84.5333,58.23,68,75,10.36,broken clouds
119,Quesnel,CA,52.9999,-122.5029,17.38,97,25,2.95,scattered clouds
120,Ilulissat,GL,69.2167,-51.1,14.02,85,100,3.44,snow
121,Salalah,OM,17.0151,54.0924,80.69,29,0,19.57,clear sky
122,Constitucion,CL,-35.3333,-72.4167,57.6,75,0,2.57,clear sky
123,Dunedin,NZ,-45.8742,170.5036,59.81,95,88,4.54,overcast clouds
124,Nanortalik,GL,60.1432,-45.2371,16.75,74,2,8.81,clear sky
125,Nome,US,64.5011,-165.4064,8.67,78,100,12.66,overcast clouds
126,Kargalinskaya,RU,43.7417,46.4792,37.4,54,19,3.4,few clouds
127,Saldanha,ZA,-33.0117,17.9442,65.64,52,4,8.01,clear sky
128,Myatlevo,RU,54.8969,35.6762,32.5,99,100,7.34,light snow
129,Port-Gentil,GA,-0.7193,8.7815,80.89,76,100,3.09,overcast clouds
130,Bonthe,SL,7.5264,-12.505,74.44,87,56,4.38,light rain
131,Moose Factory,CA,51.2585,-80.6094,31.98,100,100,3.44,mist
132,Avera,US,33.194,-82.5271,54.91,92,98,4.63,overcast clouds
133,Margate,GB,51.3813,1.3862,48.9,85,100,13.0,overcast clouds
134,Morwell,AU,-38.2333,146.4,76.41,70,100,3.71,light rain
135,Chapleau,CA,47.8405,-83.4034,37.87,100,100,8.95,overcast clouds
136,Bela,IN,25.9333,81.9833,71.08,28,8,2.55,clear sky
137,Chifeng,CN,42.2683,118.9636,26.2,24,0,5.39,clear sky
138,Lata,PT,40.1629,-8.3327,61.07,93,100,8.32,overcast clouds
139,Hay River,CA,60.8156,-115.7999,-1.17,97,88,4.27,overcast clouds
140,Cherskiy,RU,68.75,161.3,-44.63,100,87,3.67,overcast clouds
141,Jiexiu,CN,37.0244,111.9125,35.35,21,0,3.47,clear sky
142,Chuy,UY,-33.6971,-53.4616,56.71,83,0,5.57,clear sky
143,Pocone,BR,-16.2567,-56.6228,72.57,95,100,3.29,heavy intensity rain
144,Kochubey,RU,44.3861,46.5825,36.46,57,97,5.01,overcast clouds
145,Alofi,NU,-19.0595,-169.9187,79.9,78,100,5.61,light rain
146,Half Moon Bay,US,37.4636,-122.4286,56.98,96,100,10.36,overcast clouds
147,Madaoua,NE,14.073,5.96,58.41,30,4,12.44,clear sky
148,Serra Talhada,BR,-7.9919,-38.2983,74.35,69,51,5.08,broken clouds
149,Tautira,PF,-17.7333,-149.15,80.56,76,37,14.25,light rain
150,Ayacucho,PE,-13.1583,-74.2239,54.48,84,84,3.06,broken clouds
151,Georgetown,MY,5.4112,100.3354,89.53,40,20,11.5,few clouds
152,Aklavik,CA,68.2191,-135.0107,-8.79,97,100,5.08,overcast clouds
153,Bredasdorp,ZA,-34.5322,20.0403,66.61,43,98,17.6,overcast clouds
154,Tiksi,RU,71.6872,128.8694,-8.57,96,100,10.47,overcast clouds
155,Cabo San Lucas,MX,22.8909,-109.9124,70.52,71,100,9.33,overcast clouds
156,Rocha,UY,-34.4833,-54.3333,52.57,86,0,7.05,clear sky
157,Butembo,CD,0.15,29.2833,66.74,76,25,2.17,light rain
158,Atasu,KZ,48.6814,71.6433,17.53,96,100,7.81,overcast clouds
159,Varena,LT,54.2167,24.5667,34.72,95,100,6.58,overcast clouds
160,Hualmay,PE,-11.0964,-77.6139,68.94,86,91,8.68,overcast clouds
161,Airai,TL,-8.9266,125.4092,65.39,85,100,5.99,overcast clouds
162,Qingdao,CN,36.0986,120.3719,35.71,26,57,2.66,broken clouds
163,Port Alfred,ZA,-33.5906,26.891,70.18,60,40,1.99,scattered clouds
164,San Rafael Del Sur,NI,11.8485,-86.4384,75.11,77,56,11.83,broken clouds
165,Brigantine,US,39.4101,-74.3646,39.02,87,1,6.55,clear sky
166,Taoudenni,ML,22.6783,-3.9836,64.51,30,99,11.9,overcast clouds
167,Juneau,US,58.3019,-134.4197,33.22,97,100,3.44,snow
168,Plettenberg Bay,ZA,-34.0527,23.3716,65.66,49,7,8.01,clear sky
169,Phuket,TH,8.0,98.25,86.22,48,20,3.44,few clouds
170,Novaya Igirma,RU,57.1334,103.9112,-1.41,93,100,4.41,overcast clouds
171,Nara,JP,34.6851,135.8049,47.91,69,56,7.56,broken clouds
172,Shumskiy,RU,54.8318,99.1328,7.45,87,83,1.74,broken clouds
173,Saskylakh,RU,71.9167,114.0833,-1.16,85,100,22.5,overcast clouds
174,San Patricio,US,28.017,-97.5169,64.83,94,100,4.9,overcast clouds
175,Edgewater,US,28.9889,-80.9023,55.54,76,0,6.06,clear sky
176,Mitsamiouli,KM,-11.3847,43.2844,82.17,71,99,6.04,light rain
177,Namatanai,PG,-3.6667,152.4333,82.22,74,70,9.35,broken clouds
178,Baruun-Urt,MN,46.6806,113.2792,8.11,75,2,14.23,clear sky
179,Thaba-Tseka,LS,-29.522,28.6084,55.29,79,100,1.72,light rain
180,Puri,IN,19.8,85.85,82.92,52,6,3.62,clear sky
181,Petropavlovsk-Kamchatskiy,RU,53.0452,158.6483,16.39,67,75,8.95,light snow
182,Goure,NE,13.9835,10.2704,56.57,22,3,13.06,clear sky
183,Kaitangata,NZ,-46.2817,169.8464,54.61,61,59,5.46,broken clouds
184,Sorland,NO,67.667,12.6934,40.86,75,75,34.52,light rain
185,Guerrero Negro,MX,27.9769,-114.0611,58.77,82,4,10.31,clear sky
186,Zhigansk,RU,66.7697,123.3711,-19.37,98,100,2.37,overcast clouds
187,Katsuura,JP,35.1333,140.3,49.73,50,99,4.23,overcast clouds
188,Mahanje,TZ,-9.9333,35.3333,72.79,75,97,3.83,light rain
189,Tasiilaq,GL,65.6145,-37.6368,8.76,71,9,5.37,clear sky
190,Ballina,AU,-28.8667,153.5667,70.02,99,92,10.83,light rain
191,Fortuna,US,40.5982,-124.1573,56.35,94,100,8.99,overcast clouds
192,Huarmey,PE,-10.0681,-78.1522,69.51,86,100,8.19,overcast clouds
193,Batagay,RU,67.6333,134.6333,-22.25,99,100,1.01,overcast clouds
194,Kahului,US,20.8947,-156.47,75.85,76,100,3.44,overcast clouds
195,Bakchar,RU,57.0186,82.0711,4.23,94,100,6.26,overcast clouds
196,Poum,NC,-20.2333,164.0167,81.1,79,19,13.04,few clouds
197,Zhezkazgan,KZ,47.8043,67.7144,21.18,93,100,6.71,overcast clouds
198,Pilar,BR,-9.5972,-35.9567,75.13,93,16,0.65,few clouds
199,Panaba,MX,21.2833,-88.2667,70.16,98,21,7.38,few clouds
200,Bahia Blanca,AR,-38.7196,-62.2724,65.28,63,91,3.0,overcast clouds
201,Vila Velha,BR,-20.3297,-40.2925,76.95,91,40,8.05,scattered clouds
202,Kelowna,CA,49.8831,-119.4857,33.66,91,100,0.0,mist
203,Vidim,RU,56.4088,103.1106,0.91,93,100,4.7,overcast clouds
204,Itarema,BR,-2.9248,-39.9167,77.5,84,47,8.1,scattered clouds
205,Bengkulu,ID,-3.8004,102.2655,81.34,77,37,15.17,light rain
206,Madridejos,ES,39.4682,-3.532,48.7,70,100,15.37,overcast clouds
207,La Libertad,EC,-2.2333,-80.9,73.26,83,100,6.8,overcast clouds
208,Biloela,AU,-24.4167,150.5,84.25,52,100,15.88,overcast clouds
209,Nanlong,CN,31.3533,106.0631,50.79,52,11,3.62,few clouds
210,Vardo,NO,70.3705,31.1107,26.58,74,20,21.85,few clouds
211,Gayny,RU,60.3071,54.3241,11.21,94,100,6.87,overcast clouds
212,Chute-Aux-Outardes,CA,49.1168,-68.399,26.58,93,100,13.8,light snow
213,Gazli,UZ,40.1333,63.45,45.57,48,100,13.13,overcast clouds
214,Itoman,JP,26.1247,127.6694,61.18,88,75,18.41,broken clouds
215,Tupi Paulista,BR,-21.3811,-51.5706,70.97,91,6,3.53,clear sky
216,Tara,RU,56.8944,74.371,-4.09,98,100,2.64,overcast clouds
217,Severo-Kurilsk,RU,50.6789,156.125,25.02,70,100,19.89,overcast clouds
218,Kupang,ID,-10.1667,123.5833,84.78,79,75,18.41,broken clouds
219,Okha,RU,53.5739,142.9478,-4.34,92,8,11.1,clear sky
220,Rawatbhata,IN,24.9333,75.5833,79.47,37,0,7.94,clear sky
221,Chapada Dos Guimaraes,BR,-15.4606,-55.7497,67.66,95,100,3.04,moderate rain
222,Hithadhoo,MV,-0.6,73.0833,80.26,74,9,4.14,clear sky
223,South River,US,40.4465,-74.386,44.85,76,0,1.01,clear sky
224,Sokolskoye,RU,57.1412,43.1589,2.08,99,95,2.91,overcast clouds
225,Katobu,ID,-4.9408,122.5276,82.53,72,100,8.43,overcast clouds
226,Kissidougou,GN,9.1848,-10.0999,64.0,43,50,2.24,scattered clouds
227,Comodoro Rivadavia,AR,-45.8667,-67.5,62.46,34,0,13.8,clear sky
228,Cayenne,GF,4.9333,-52.3333,73.44,100,100,2.3,overcast clouds
229,Lethbridge,CA,49.7,-112.8186,29.86,68,0,19.57,clear sky
230,Ukiah,US,39.1502,-123.2078,51.15,96,100,5.75,light rain
231,Impfondo,CG,1.6381,18.0667,80.55,40,99,3.31,overcast clouds
232,Panguna,PG,-6.3164,155.4848,74.44,77,100,2.24,overcast clouds
233,Vestmanna,FO,62.1564,-7.1664,31.12,64,75,13.8,broken clouds
234,Bonavista,CA,48.6499,-53.1147,25.59,74,100,20.98,overcast clouds
235,Nhulunbuy,AU,-12.2333,136.7667,77.61,94,100,8.05,heavy intensity rain
236,Kalaleh,IR,37.3807,55.4916,53.2,76,75,0.0,broken clouds
237,Corcoran,US,36.098,-119.5604,51.94,86,100,4.72,overcast clouds
238,Vao,NC,-22.6667,167.4833,77.85,86,90,18.39,overcast clouds
239,Kalmar,SE,56.6616,16.3616,42.73,89,100,11.5,overcast clouds
240,Leningradskiy,RU,69.3833,178.4167,-16.29,92,100,12.24,overcast clouds
241,Omsukchan,RU,62.5333,155.8,-32.06,98,99,4.12,overcast clouds
242,Aykhal,RU,66.0,111.5,-14.58,99,100,10.69,overcast clouds
243,Barcelona,ES,41.3888,2.159,59.9,74,100,6.96,overcast clouds
244,Morrisburg,CA,44.9001,-75.1826,47.68,100,100,9.53,overcast clouds
245,Victor Harbor,AU,-35.5667,138.6167,71.67,69,0,3.0,clear sky
246,Vila Franca Do Campo,PT,37.7167,-25.4333,63.01,85,100,26.87,overcast clouds
247,Upernavik,GL,72.7868,-56.1549,-10.03,90,100,4.68,overcast clouds
248,Hofn,IS,64.2539,-15.2082,17.35,65,5,16.82,clear sky
249,Saint George,US,37.1041,-113.5841,37.99,87,100,0.0,overcast clouds
250,Sosnovo-Ozerskoye,RU,52.5249,111.5418,3.94,90,94,11.99,overcast clouds
251,Santa Engracia,ES,41.9406,-1.3245,58.59,70,100,11.52,overcast clouds
252,Camacha,PT,33.0833,-16.3333,60.22,88,20,8.05,few clouds
253,Yar-Sale,RU,66.8333,70.8333,-24.81,100,81,4.16,broken clouds
254,Kalmunai,LK,7.4167,81.8167,81.77,62,100,11.21,overcast clouds
255,Clyde River,CA,70.4692,-68.5914,-21.77,76,0,4.61,clear sky
256,Borujerd,IR,33.8973,48.7516,35.83,64,0,0.0,clear sky
257,Berlevag,NO,70.8578,29.0864,24.8,73,100,35.68,overcast clouds
258,Carbonear,CA,47.7332,-53.2148,24.42,80,52,11.21,broken clouds
259,Mola Di Bari,IT,41.0609,17.0873,56.91,79,92,8.05,overcast clouds
260,Baykit,RU,61.67,96.37,-22.13,98,24,1.74,few clouds
261,Aswan,EG,24.0934,32.907,61.93,36,0,8.21,clear sky
262,Sale,MA,34.0389,-6.8166,56.64,100,0,0.0,clear sky
263,Moussoro,TD,13.6408,16.4901,60.53,24,0,16.67,clear sky
264,Longyearbyen,SJ,78.2186,15.6401,22.84,68,75,9.22,light snow
265,Bathurst,AU,-33.4166,149.5806,72.97,66,72,5.01,broken clouds
266,Lloydminster,CA,53.2835,-110.0016,8.82,92,75,6.91,broken clouds
267,Bathsheba,BB,13.2167,-59.5167,75.81,88,75,16.11,broken clouds
268,Palmer,US,42.1584,-72.3287,42.48,73,100,0.0,overcast clouds
269,Yaransk,RU,57.3033,47.8861,10.92,97,97,5.37,overcast clouds
270,Caravelas,BR,-17.7125,-39.2481,72.03,93,20,5.23,few clouds
271,Sikonge,TZ,-5.6333,32.7667,63.52,97,100,3.15,moderate rain
272,San Cristobal,VE,7.7669,-72.225,63.03,93,11,1.32,few clouds
273,New Port Richey,US,28.2442,-82.7193,63.95,86,0,1.99,clear sky
274,Progreso,MX,21.2833,-89.6667,72.1,95,7,10.96,clear sky
275,Leczna,PL,51.3012,22.8814,39.51,81,0,5.75,clear sky
276,Tilichiki,RU,60.4667,166.1,-14.26,91,100,12.19,overcast clouds
277,High Level,CA,58.5169,-117.136,6.91,92,100,2.3,overcast clouds
278,Gizo,SB,-8.103,156.8419,83.82,67,100,10.54,overcast clouds
279,Barahona,DO,18.2085,-71.1008,72.54,85,1,1.07,clear sky
280,Lasa,IT,46.6166,10.7002,40.08,96,92,0.65,overcast clouds
281,Pangnirtung,CA,66.1451,-65.7125,-19.19,100,98,2.8,overcast clouds
282,Kirakira,SB,-10.4544,161.9205,83.03,77,100,5.61,moderate rain
283,Trairi,BR,-3.2778,-39.2689,76.86,86,78,6.78,broken clouds
284,Mabaruma,GY,8.2,-59.7833,70.86,99,16,1.92,few clouds
285,Talara,PE,-4.5772,-81.2719,70.29,80,27,9.71,scattered clouds
286,Realeza,BR,-25.7689,-53.5325,60.37,63,3,3.38,clear sky
287,Hambantota,LK,6.1241,81.1185,82.58,61,99,14.92,overcast clouds
288,Chulman,RU,56.8479,124.9104,-3.05,98,100,3.91,overcast clouds
289,Vestmannaeyjar,IS,63.4427,-20.2734,20.71,65,0,20.09,clear sky
290,Almeirim,BR,-1.5233,-52.5817,72.45,97,100,2.59,overcast clouds
291,El Alto,PE,-4.2714,-81.2147,69.78,77,81,9.93,broken clouds
292,Kirovskiy,RU,45.0917,133.5136,3.94,92,5,1.61,clear sky
293,Linxia,CN,35.6003,103.2064,32.4,17,0,3.04,clear sky
294,Soure,BR,-0.7167,-48.5233,78.26,83,100,9.17,overcast clouds
295,Beirut,LB,33.8889,35.4944,61.77,48,2,4.38,clear sky
296,Mogadishu,SO,2.0371,45.3438,81.07,65,1,14.88,clear sky
297,Lagoa,PT,39.05,-27.9833,60.44,84,100,27.38,overcast clouds
298,Auki,SB,-8.7676,160.7034,82.0,80,95,7.49,overcast clouds
299,Chapadinha,BR,-3.7417,-43.3603,71.08,99,68,2.33,moderate rain
300,Aksarka,RU,66.5606,67.7975,-25.17,100,57,4.59,broken clouds
301,Kamaishi,JP,39.2667,141.8833,36.32,68,53,9.46,broken clouds
302,Samarai,PG,-10.6167,150.6667,82.51,74,100,12.8,overcast clouds
303,Lorengau,PG,-2.0226,147.2712,77.56,85,100,10.27,light rain
304,Lubango,AO,-14.9172,13.4925,67.87,63,100,2.19,overcast clouds
305,Paamiut,GL,61.994,-49.6678,10.81,79,7,12.35,clear sky
306,Geraldton,AU,-28.7667,114.6,79.21,65,0,17.27,clear sky
307,Semey,KZ,50.4111,80.2275,16.02,86,40,4.47,mist
308,Corinto,GR,37.9407,22.9573,52.9,80,42,2.37,scattered clouds
309,Zaria,NG,11.1113,7.7227,55.87,24,76,13.18,broken clouds
310,Alekseyevsk,RU,57.8406,108.3492,-8.46,94,100,4.99,overcast clouds
311,Coahuayana,MX,18.7333,-103.6833,68.85,74,100,4.21,overcast clouds
312,Melfort,CA,52.8667,-104.6177,3.33,85,13,6.91,few clouds
313,Fomboni,KM,-12.28,43.7425,80.71,75,27,9.84,moderate rain
314,Cermik,TR,38.1361,39.4493,44.44,52,0,2.73,clear sky
315,Esperance,AU,-33.8667,121.9,79.29,51,0,21.16,clear sky
316,Tres Arroyos,AR,-38.3739,-60.2798,60.98,46,100,2.71,overcast clouds
317,Boende,CD,-0.2167,20.8667,79.16,69,95,3.06,overcast clouds
318,Mancio Lima,BR,-7.6142,-72.8958,73.47,100,0,2.3,clear sky
319,Taltal,CL,-25.4,-70.4833,62.91,87,77,3.69,broken clouds
320,Praia,CV,14.9215,-23.5087,70.65,62,1,7.31,clear sky
321,Cerro Cama,PA,9.03,-79.905,77.07,97,30,2.55,scattered clouds
322,Ler,SS,8.3018,30.1418,82.04,25,11,9.33,few clouds
323,Ulladulla,AU,-35.35,150.4667,70.93,69,29,11.5,scattered clouds
324,Payo,ID,-3.7508,103.6372,83.26,70,87,4.47,overcast clouds
325,Kiruna,SE,67.8557,20.2251,14.92,92,100,5.75,light snow
326,Portland,US,45.5234,-122.6762,49.84,94,100,16.11,heavy intensity rain
327,Tuatapere,NZ,-46.1333,167.6833,57.7,60,94,4.97,overcast clouds
328,Taunggyi,MM,20.7833,97.0333,70.16,37,29,9.24,scattered clouds
329,Perth,AU,-31.9333,115.8333,88.02,41,0,16.11,clear sky
330,Whitehorse,CA,60.7161,-135.0538,-1.89,75,0,2.3,fog
331,Seydi,TM,39.4816,62.9137,45.82,47,98,10.69,overcast clouds
332,San Jose,US,37.3394,-121.895,56.35,91,75,10.36,broken clouds
333,Scarborough,GB,54.2797,-0.4044,44.91,85,100,11.99,overcast clouds
334,Thanh Hoa,VN,19.8,105.7667,64.85,52,77,8.68,broken clouds
335,Villa Bruzual,VE,9.3328,-69.1208,72.55,72,57,6.42,broken clouds
336,Flinders,AU,-34.5833,150.8552,74.17,88,42,4.0,light rain
337,Scottsbluff,US,41.8666,-103.6672,31.28,56,0,5.01,clear sky
338,Sakakah,SA,29.9697,40.2064,53.17,55,0,12.12,clear sky
339,Providencia,MX,28.7167,-111.5833,62.2,76,100,3.18,overcast clouds
340,Iskar,BG,43.45,24.2667,33.66,93,75,0.0,mist
341,Sao Raimundo Das Mangabeiras,BR,-7.0219,-45.4811,71.98,91,10,1.79,clear sky
342,Hirara,JP,24.8,125.2833,64.67,94,75,26.46,broken clouds
343,Batagay-Alyta,RU,67.8006,130.4114,-30.23,91,78,5.39,broken clouds
344,Kajaani,FI,64.2273,27.7285,24.85,86,100,17.27,light snow
345,General Pico,AR,-35.6566,-63.7568,65.19,25,5,10.02,clear sky
346,Ugra,RU,54.7777,34.3267,33.33,98,100,7.99,overcast clouds
347,Kavaratti,IN,10.5669,72.642,82.2,68,83,5.14,broken clouds
348,Mehamn,NO,71.0357,27.8492,24.75,63,0,25.32,clear sky
349,Sorong,ID,-0.8833,131.25,82.24,74,86,6.42,overcast clouds
350,Conde,BR,-7.2597,-34.9075,78.26,78,20,8.05,few clouds
351,Vanimo,PG,-2.6741,141.3028,82.6,73,90,9.04,overcast clouds
352,Biak,ID,-0.9131,122.8766,82.81,69,100,2.24,overcast clouds
353,Lompoc,US,34.6391,-120.4579,56.79,84,100,5.3,overcast clouds
354,Brae,GB,60.3964,-1.353,39.33,63,100,4.88,overcast clouds
355,Tommot,RU,58.9564,126.2925,-7.31,96,100,5.08,overcast clouds
356,Vila Do Maio,CV,15.1333,-23.2167,72.19,60,1,8.01,clear sky
357,Maningrida,AU,-12.0667,134.2667,83.88,74,99,16.44,moderate rain
358,Husavik,IS,66.0449,-17.3389,20.37,71,100,18.05,light snow
359,Kaabong,UG,3.4836,34.1492,73.98,36,11,21.77,few clouds
360,Lodwar,KE,3.1191,35.5973,89.51,24,95,25.32,overcast clouds
361,Ahipara,NZ,-35.1667,173.1667,68.05,78,1,9.1,clear sky
362,Sola,VU,-13.8833,167.55,82.51,72,99,16.84,overcast clouds
363,Champerico,GT,14.3,-91.9167,75.6,76,18,5.55,few clouds
364,Guilin,CN,25.2819,110.2864,55.51,42,42,6.93,scattered clouds
365,Atagay,RU,55.1033,99.3875,6.76,89,100,2.8,overcast clouds
366,Twentynine Palms,US,34.1356,-116.0542,53.06,75,9,1.99,clear sky
367,Ongandjera,NA,-17.8833,15.0667,80.4,46,77,9.78,broken clouds
368,Nicoya,CR,10.1483,-85.452,72.01,88,6,3.94,clear sky
369,Meulaboh,ID,4.1363,96.1285,82.71,68,100,6.64,overcast clouds
370,Walvis Bay,NA,-22.9575,14.5053,67.15,68,0,10.36,clear sky
371,Deputatskiy,RU,69.3,139.9,-36.24,96,79,4.85,broken clouds
372,Zaraza,VE,9.3503,-65.3245,70.23,93,4,4.36,clear sky
373,Gijon,ES,43.5357,-5.6615,67.46,98,98,1.01,overcast clouds
374,Yagodnoye,RU,62.55,149.6667,-29.34,98,90,2.8,overcast clouds
375,Bull Savanna,JM,17.8868,-77.5902,69.82,83,0,7.4,clear sky
376,Bay Roberts,CA,47.5999,-53.2648,24.33,81,60,5.01,broken clouds
377,Tigil,RU,57.8,158.6667,-1.16,98,100,0.4,overcast clouds
378,Bethel,US,41.3712,-73.414,42.94,71,75,3.0,broken clouds
379,Sao Felix Do Xingu,BR,-6.6447,-51.995,70.63,98,99,1.23,overcast clouds
380,Porto Novo,BJ,6.4965,2.6036,75.02,71,29,4.52,scattered clouds
381,Contamana,PE,-7.3333,-75.0167,72.09,95,62,2.19,broken clouds
382,Dumas,US,35.8656,-101.9732,29.53,80,0,5.75,clear sky
383,Carlisle,US,40.2015,-77.1889,41.0,70,61,1.54,broken clouds
384,Mayo,US,38.8876,-76.5119,42.49,94,0,0.0,clear sky
385,La Romana,DO,18.4273,-68.9728,72.14,90,1,10.22,clear sky
386,Prieska,ZA,-29.6641,22.7474,69.46,32,0,15.77,clear sky
387,Arman,RU,59.7,150.1667,-17.99,81,2,8.97,clear sky
388,Luwuk,ID,-0.9516,122.7875,85.73,69,100,1.54,overcast clouds
389,Sao Miguel Do Araguaia,BR,-13.275,-50.1628,69.94,97,100,3.74,overcast clouds
390,Beloha,MG,-25.1667,45.05,92.01,38,0,1.23,clear sky
391,Labytnangi,RU,66.6572,66.4183,-17.64,100,100,1.86,overcast clouds
392,Codrington,AU,-38.2667,141.9667,66.83,74,4,12.41,clear sky
393,Buenaventura,CO,3.8801,-77.0312,74.03,93,92,1.68,overcast clouds
394,Arcelia,MX,18.2833,-100.2667,68.92,58,100,3.31,overcast clouds
395,Mezen,RU,65.8522,44.24,8.92,95,100,7.54,overcast clouds
396,Lalmohan,BD,22.3384,90.7419,72.59,34,82,4.29,broken clouds
397,Cootamundra,AU,-34.65,148.0333,79.95,51,20,10.07,few clouds
398,Dragoesti,RO,47.55,26.0833,42.96,83,2,5.88,clear sky
399,Yambio,SS,4.5721,28.3955,78.73,30,98,6.11,overcast clouds
400,Santa,PH,17.486,120.4348,88.02,55,97,18.1,overcast clouds
401,Kolyvan,RU,55.3053,82.7391,-4.38,98,99,3.78,overcast clouds
402,Suining,CN,30.508,105.5733,52.12,52,98,5.03,overcast clouds
403,Maua,BR,-23.6678,-46.4614,70.36,98,99,3.65,overcast clouds
404,Mbanza-Ngungu,CD,-5.25,14.8667,71.6,92,100,0.56,overcast clouds
405,Muzhi,RU,65.3667,64.6667,-11.88,100,100,1.63,overcast clouds
406,Kasungu,MW,-13.0333,33.4833,70.66,81,100,3.09,light rain
407,Boffa,GN,10.1667,-14.0333,72.5,52,91,2.71,overcast clouds
408,Desnogorsk,RU,54.1508,33.2815,33.49,98,100,8.25,overcast clouds
409,Bibiani,GH,6.4635,-2.3194,67.71,86,100,1.66,overcast clouds
410,Buala,SB,-8.145,159.5921,82.76,79,97,8.99,light rain
411,Oum Hadjer,TD,13.2954,19.6966,65.39,24,7,11.16,clear sky
412,Ilanskiy,RU,56.2358,96.065,0.72,95,83,2.06,broken clouds
413,Faya,SA,18.3851,42.4509,60.91,68,100,7.7,overcast clouds
414,Nizhneangarsk,RU,55.7833,109.55,3.58,77,97,4.7,overcast clouds
415,Mekhe,SN,15.1097,-16.6218,68.77,70,80,7.34,broken clouds
416,Ouegoa,NC,-20.35,164.4333,82.08,76,19,12.17,few clouds
417,Harper,LR,4.375,-7.7169,76.75,86,36,3.02,scattered clouds
418,Lavrentiya,RU,65.5833,-171.0,-8.77,87,65,9.1,broken clouds
419,Bo Phloi,TH,14.3236,99.5161,87.31,45,96,11.45,overcast clouds
420,Ternate,ID,0.8,127.4,83.03,73,100,10.74,overcast clouds
421,Chaoyang,CN,41.5703,120.4586,30.2,20,0,6.29,clear sky
422,Rio Tinto,PT,41.1826,-8.5581,60.58,99,100,17.27,overcast clouds
423,Yenagoa,NG,4.9247,6.2642,76.05,82,98,4.99,overcast clouds
424,Erie,US,42.7667,-78.6664,52.39,79,100,12.44,overcast clouds
425,Mugango,TZ,-1.6833,33.7,77.18,57,62,7.61,broken clouds
426,North Bend,US,43.4065,-124.2243,55.92,94,100,13.8,overcast clouds
427,Kutum,SD,14.2,24.6667,55.26,31,4,9.55,clear sky
428,Derzhavinsk,KZ,51.1,66.3167,19.4,96,98,7.02,overcast clouds
429,Puksoozero,RU,62.5903,40.6066,-1.34,99,73,4.83,broken clouds
430,Felipe Carrillo Puerto,MX,19.5833,-88.05,70.09,99,25,2.08,scattered clouds
431,Khatanga,RU,71.9667,102.5,-10.68,93,100,15.99,overcast clouds
432,Monfalcone,IT,45.8072,13.5342,53.38,98,100,3.44,light rain
433,Dillon,US,34.4166,-79.3712,46.38,90,0,2.06,clear sky
434,Komsomolskiy,UZ,40.4272,71.7189,38.12,75,75,4.61,mist
435,Bagdarin,RU,54.4333,113.6,7.2,64,0,9.6,clear sky
436,Ondarroa,ES,43.3167,-2.4167,66.79,70,100,18.61,overcast clouds
437,Yuci,CN,37.6803,112.7319,35.35,18,0,2.24,clear sky
438,Merauke,ID,-8.4667,140.3333,83.98,74,97,9.37,overcast clouds
439,La Spezia,IT,44.1105,9.8434,60.08,90,75,6.91,broken clouds
440,Namibe,AO,-15.1961,12.1522,73.78,78,100,9.37,light rain
441,Nabire,ID,-3.3667,135.4833,85.01,63,94,5.17,moderate rain
442,Frekhaug,NO,60.5139,5.2435,42.06,56,100,8.99,overcast clouds
443,Belmonte,BR,-15.8631,-38.8828,74.46,86,44,4.72,scattered clouds
444,Ancud,CL,-41.8697,-73.8203,48.81,91,45,2.77,scattered clouds
445,Valentin Gomez Farias,MX,28.2167,-106.5833,41.97,71,62,11.01,broken clouds
446,Alta Floresta,BR,-9.8756,-56.0861,70.57,100,100,2.42,moderate rain
447,Manacapuru,BR,-3.2997,-60.6206,73.78,93,98,1.45,overcast clouds
448,Auriflama,BR,-20.6856,-50.5547,71.92,88,100,4.23,overcast clouds
449,Sinnamary,GF,5.3833,-52.95,75.76,88,95,7.2,overcast clouds
450,Daoukro,CI,7.0591,-3.9631,66.13,31,71,2.28,broken clouds
451,Yeniseysk,RU,58.4497,92.1703,-7.87,96,100,3.24,overcast clouds
452,Riobamba,EC,-1.6667,-78.6333,50.61,88,84,2.59,broken clouds
453,Sao Filipe,CV,14.8961,-24.4956,71.73,62,28,7.45,scattered clouds
454,Forquilhinha,BR,-28.7475,-49.4722,58.93,91,0,2.08,clear sky
455,Isla Mujeres,MX,21.2311,-86.731,77.16,87,3,12.37,light rain
456,Coquimbo,CL,-29.9533,-71.3436,60.53,88,100,4.61,overcast clouds
457,Punahana,IN,27.8667,77.2,70.93,33,5,5.91,clear sky
458,Pangody,RU,65.85,74.4859,-24.72,100,10,5.37,clear sky
459,Verkhnevilyuysk,RU,63.4453,120.3167,-34.06,99,88,5.19,overcast clouds
460,Richards Bay,ZA,-28.783,32.0377,68.16,81,100,14.63,light rain
461,Chapais,CA,49.7834,-74.8492,33.58,100,100,8.25,overcast clouds
462,Kysyl-Syr,RU,63.8986,122.7617,-34.11,99,56,5.77,broken clouds
463,Mmabatho,ZA,-25.85,25.6333,69.76,68,47,12.66,scattered clouds
464,Charters Towers,AU,-20.1,146.2667,92.17,24,97,9.55,overcast clouds
465,Mount Gambier,AU,-37.8333,140.7667,68.13,62,29,9.8,scattered clouds
466,Bindura,ZW,-17.3019,31.3306,67.26,88,99,5.41,light rain
467,Santa Maria,BR,-29.6842,-53.8069,60.31,45,0,2.98,clear sky
468,Marsh Harbour,BS,26.5412,-77.0636,74.37,83,86,10.74,overcast clouds
469,Claveria,PH,18.6074,121.0832,74.55,85,99,14.43,overcast clouds
470,Sao Joao Da Barra,BR,-21.6403,-41.0511,72.59,95,100,6.44,overcast clouds
471,Naryan-Mar,RU,67.6713,53.087,-3.12,95,100,9.01,overcast clouds
472,Baringo,KE,0.4667,35.9667,78.04,37,9,0.94,clear sky
473,Porto Velho,BR,-8.7619,-63.9039,73.45,94,75,5.75,moderate rain
474,Mount Hagen,PG,-5.8581,144.2274,66.96,77,40,11.5,scattered clouds
475,High Point,US,35.9557,-80.0053,46.35,80,20,4.61,few clouds
476,Narsaq,GL,60.9167,-46.05,5.22,64,0,6.71,clear sky
477,Nuuk,GL,64.1835,-51.7216,6.98,90,42,6.69,scattered clouds
478,Rajapur,IN,25.3833,81.15,69.17,28,90,2.33,overcast clouds
479,Sisak,HR,45.4661,16.3783,49.98,86,100,4.41,overcast clouds
480,Cabedelo,BR,-6.9811,-34.8339,79.47,77,8,10.71,clear sky
481,Bandarbeyla,SO,9.4942,50.8122,80.62,64,70,21.99,broken clouds
482,Ambilobe,MG,-13.2,49.05,80.13,70,83,0.92,broken clouds
483,Catemaco,MX,18.4167,-95.1167,66.61,84,51,2.68,broken clouds
484,Puerto Escondido,MX,15.85,-97.0667,75.38,70,99,5.01,overcast clouds
485,Lagos,NG,6.5833,3.75,72.34,64,26,4.97,scattered clouds
486,Labis,MY,2.385,103.021,83.55,70,75,6.58,broken clouds
487,Pedernales,DO,18.0384,-71.744,75.0,67,0,2.48,clear sky
488,Bunol,ES,39.4167,-0.7833,57.56,62,100,14.18,overcast clouds
489,Bin Qirdan,TN,33.1378,11.2197,57.02,46,0,5.84,clear sky
490,Teya,RU,60.3778,92.6267,-9.63,98,77,2.46,broken clouds
491,Klaksvik,FO,62.2266,-6.589,32.92,64,96,21.09,overcast clouds
492,Mozarlandia,BR,-14.7447,-50.5706,70.21,98,100,3.31,overcast clouds
493,Buin,CL,-33.7333,-70.75,71.74,61,0,0.83,clear sky
494,West Wendover,US,40.7391,-114.0733,29.41,74,100,3.44,overcast clouds
495,Barra Patuca,HN,15.8,-84.2833,73.98,89,7,6.24,light rain
496,Rivera,UY,-30.9053,-55.5508,61.65,40,0,4.43,clear sky
497,Sault Sainte Marie,CA,46.5168,-84.3333,44.89,100,100,8.05,fog
498,Gimli,CA,50.6336,-96.9907,5.02,78,93,5.75,overcast clouds
499,Mahon,ES,39.8885,4.2658,59.56,82,0,14.97,clear sky
500,Humberto De Campos,BR,-2.5983,-43.4611,74.52,92,85,4.79,moderate rain
501,Todos Santos,MX,23.45,-110.2167,67.44,74,96,3.09,overcast clouds
502,Ito,JP,34.9667,139.0833,50.74,69,41,3.31,scattered clouds
503,Cooma,AU,-36.2333,149.1333,66.6,79,100,6.13,light rain
504,Yokote,JP,39.3,140.5667,33.96,90,95,13.69,light snow
505,Andijon,UZ,40.7821,72.3442,42.08,75,40,4.61,mist
506,Carutapera,BR,-1.195,-46.02,75.65,91,83,6.31,broken clouds
507,Panama City,PA,8.9936,-79.5197,78.13,86,75,3.44,broken clouds
508,Tiznit,MA,29.5833,-9.5,59.9,32,58,5.21,broken clouds
509,Astana,KZ,51.1801,71.446,17.55,86,75,8.95,broken clouds
510,Belance,PH,16.1833,121.25,67.69,88,100,4.61,overcast clouds
511,Surt,LY,31.2089,16.5887,60.46,63,100,4.59,overcast clouds
512,San Juan,AR,-31.5375,-68.5364,78.04,25,0,7.16,clear sky
513,Rybinsk,RU,58.0446,38.8426,12.13,96,100,7.54,overcast clouds
514,Ambikapur,IN,23.1167,83.2,75.31,22,5,5.79,clear sky
515,Pasighat,IN,28.0667,95.3333,71.94,37,3,3.8,clear sky
516,Skjervoy,NO,70.0311,20.9714,24.8,69,100,32.66,overcast clouds
517,Duncan,US,34.5023,-97.9578,46.29,59,0,8.05,clear sky
518,Sundsvall,SE,62.3913,17.3063,33.76,100,100,6.91,overcast clouds
519,Casino,AU,-28.8667,153.05,69.78,91,100,5.97,overcast clouds
520,Bam,IR,29.106,58.357,52.21,35,0,3.15,clear sky
521,San Julian,MX,21.0167,-102.1667,47.32,42,40,5.64,scattered clouds
522,Henties Bay,NA,-22.116,14.2845,64.38,78,15,1.99,few clouds
523,Makokou,GA,0.5738,12.8642,76.69,72,99,3.06,overcast clouds
524,Mongoumba,CF,3.6415,18.5936,78.55,31,100,5.55,overcast clouds
525,Pandamatenga,BW,-18.5278,25.627,81.19,46,6,8.5,clear sky
526,Camapua,BR,-19.5314,-54.0439,70.72,95,84,0.31,broken clouds
527,Safford,US,32.834,-109.7076,50.11,87,100,5.75,overcast clouds
528,Xining,CN,36.6167,101.7667,28.44,18,0,2.24,clear sky
529,Harrisburg,US,40.2737,-76.8844,43.05,78,100,1.99,overcast clouds
530,Canton,CN,23.1167,113.25,67.87,39,100,11.03,overcast clouds
531,Uruzgan,AF,32.8333,66.0,42.28,41,0,3.87,clear sky
532,Minot,US,48.2325,-101.2963,-3.28,99,22,4.88,few clouds
533,Dekar,BW,-21.5333,21.9333,76.68,51,96,13.49,overcast clouds
534,Shenjiamen,CN,29.9576,122.298,47.08,65,99,14.67,overcast clouds
535,Artyom,AZ,40.4723,50.333,48.34,62,38,5.79,scattered clouds
536,Kolaras,IN,25.2333,77.6,77.32,22,0,7.38,clear sky
537,Broken Hill,AU,-31.95,141.4333,89.37,25,2,4.9,clear sky
538,Port Hardy,CA,50.6996,-127.4199,42.98,87,100,21.85,light rain
539,Guangyuan,CN,32.442,105.823,46.9,59,99,3.04,overcast clouds
540,Peterhead,GB,57.5058,-1.7981,43.2,95,100,28.21,moderate rain
541,Evensk,RU,61.95,159.2333,-8.93,77,93,11.05,overcast clouds
542,Nemuro,JP,43.3236,145.575,29.41,62,38,13.82,scattered clouds
543,Markova,UA,48.6758,24.4138,39.18,87,99,6.69,overcast clouds
544,Bekovo,RU,52.4663,43.712,28.08,97,100,8.7,light snow
545,Vidra,RO,44.2606,26.1697,39.34,87,8,6.67,clear sky
546,Mchinji,MW,-13.7984,32.8802,68.99,82,100,3.53,overcast clouds
547,Teguise,ES,29.0605,-13.564,61.02,82,0,4.61,clear sky
548,Ljungby,SE,56.8332,13.9408,41.41,91,100,16.51,overcast clouds
549,Aljezur,PT,37.3191,-8.8033,58.64,82,100,7.78,overcast clouds
550,Ixtapa,MX,20.7,-105.2,69.22,77,55,2.77,broken clouds
551,Acarau,BR,-2.8856,-40.12,77.34,85,53,8.57,broken clouds
552,Zyryanka,RU,65.75,150.85,-30.17,98,100,3.91,overcast clouds
553,Jodhpur,IN,26.2867,73.03,74.64,22,0,10.18,clear sky
554,Clifton,US,40.8584,-74.1638,44.42,76,75,3.44,broken clouds
555,Norsup,VU,-16.0667,167.3833,80.94,83,98,18.39,overcast clouds
556,Nouadhibou,MR,20.931,-17.0347,66.18,77,40,10.36,scattered clouds
557,Mincivan,AZ,39.0294,46.7185,43.61,57,0,2.15,clear sky
558,Gualan,GT,15.1333,-89.3667,71.11,97,100,0.6,overcast clouds
559,Yumen,CN,40.2833,97.2,24.28,43,77,15.21,broken clouds
560,Bend,US,44.0582,-121.3153,37.81,89,40,8.99,moderate rain
561,Kibala,TD,9.1104,18.3463,67.95,42,0,4.61,clear sky
562,Montmagny,FR,48.9734,2.3469,47.64,92,100,17.27,overcast clouds
563,Conakry,GN,9.538,-13.6773,78.87,78,75,4.61,mist
564,Quatre Cocos,MU,-20.2078,57.7625,84.31,63,1,9.75,clear sky
565,Mackay,AU,-21.15,149.2,87.67,69,76,14.45,broken clouds
566,Lima,PE,-12.0432,-77.0282,71.91,79,75,10.36,broken clouds
567,Turukhansk,RU,65.8167,87.9833,-15.86,84,18,8.52,few clouds
568,Horodyshche,UA,49.2849,31.4451,34.57,73,100,7.14,overcast clouds
569,Zaranj,AF,30.9667,61.8833,53.56,37,0,10.18,clear sky
570,Luena,AO,-11.7833,19.9167,66.54,86,97,6.87,overcast clouds
571,Kuzhithurai,IN,8.3167,77.1833,87.48,44,81,1.5,broken clouds
572,Gigmoto,PH,13.7796,124.39,81.84,82,100,3.56,overcast clouds
573,George,ZA,-33.963,22.4617,63.37,48,100,5.95,overcast clouds
574,Singkang,MY,2.1006,102.7994,83.98,68,86,4.14,overcast clouds
575,Bambanglipuro,ID,-7.95,110.2833,82.56,72,83,4.25,broken clouds
576,Araouane,ML,18.9048,-3.5265,66.94,19,100,10.94,overcast clouds
577,Eureka,US,40.8021,-124.1637,56.62,95,100,5.99,overcast clouds
578,Ponnani,IN,10.767,75.9252,87.12,47,24,1.25,few clouds
579,Tambura,SS,5.6,27.4667,80.49,22,10,8.1,clear sky
580,Salamiyah,SY,35.0113,37.0532,51.82,67,0,8.21,clear sky
581,Vaitape,PF,-16.5167,-151.75,80.82,76,100,15.77,overcast clouds
582,Falmouth,GB,50.1544,-5.0711,54.18,100,100,18.41,drizzle
583,Kieta,PG,-6.2167,155.6333,82.29,70,100,7.54,overcast clouds
584,Jinchang,CN,38.4953,102.1739,29.43,19,18,3.27,few clouds
585,Abalak,RU,58.1286,68.5944,-5.85,98,84,2.84,broken clouds
586,Kangaatsiaq,GL,68.3065,-53.4641,14.16,73,100,18.72,overcast clouds
587,Pandan,PH,14.0453,124.1694,81.05,84,100,3.53,overcast clouds
588,Ratnagiri,IN,16.9833,73.3,86.81,42,0,8.79,clear sky
589,Oriximina,BR,-1.7656,-55.8661,72.32,94,93,2.35,overcast clouds
590,Ust-Uda,RU,54.1742,103.0304,4.89,87,87,2.68,overcast clouds
591,Riyadh,SA,24.6877,46.7219,53.74,46,100,7.92,moderate rain
592,Petropavlovka,RU,50.6114,105.3196,10.42,92,100,2.04,overcast clouds
593,Iberia,US,29.9502,-91.7507,68.07,94,100,12.66,overcast clouds
594,Troitskoye,RU,52.9821,84.6757,13.12,95,100,0.72,overcast clouds
595,Zile,TR,40.3031,35.8864,29.79,61,1,1.57,clear sky
596,Fairbanks,US,64.8378,-147.7164,-2.9,81,100,0.0,overcast clouds
597,Gobabis,NA,-22.45,18.9667,78.3,40,41,15.57,scattered clouds
598,Xuddur,SO,4.1213,43.8894,80.02,41,0,23.91,clear sky
599,Solnechnyy,RU,50.7214,136.6319,-2.0,98,65,6.38,broken clouds
600,Garmsar,IR,35.2182,52.3409,47.91,34,0,2.86,clear sky
601,Tevaitoa,PF,-16.7833,-151.5,80.82,76,100,15.48,overcast clouds
602,Crestview,US,30.7621,-86.5705,58.24,79,0,5.75,clear sky
603,Guarapari,BR,-20.6667,-40.4975,75.88,94,100,5.57,overcast clouds
604,Talnakh,RU,69.4865,88.3972,-20.16,95,37,6.76,scattered clouds
605,Morondava,MG,-20.2833,44.2833,83.95,69,99,2.8,overcast clouds
606,Bocas Del Toro,PA,9.3333,-82.25,77.77,79,60,5.26,light rain
607,Isla Vista,US,34.4133,-119.861,57.0,89,100,3.44,mist
608,Lucera,IT,41.5082,15.3351,46.49,87,0,4.61,clear sky
609,Sungaipenuh,ID,-2.0833,101.3833,71.96,81,95,5.66,overcast clouds
610,Norrtalje,SE,59.758,18.705,41.43,83,100,10.92,overcast clouds
611,Hit,IQ,33.6416,42.8251,55.81,61,0,2.17,clear sky
612,Norman Wells,CA,65.282,-126.8329,-21.96,76,20,3.44,few clouds
613,Yarmouth,US,41.7057,-70.2286,44.74,85,0,8.05,clear sky
614,Ketchikan,US,55.3422,-131.6461,44.58,87,100,9.22,light rain
615,Lysyye Gory,RU,51.5506,44.8414,28.42,97,100,8.97,light snow
616,Gondanglegi,ID,-7.7479,112.0132,80.08,83,100,11.88,overcast clouds
617,Porto De Moz,BR,-1.7483,-52.2383,72.86,99,100,2.35,overcast clouds
618,Makhachkala,RU,42.9764,47.5024,41.02,58,100,6.8,overcast clouds
619,Kushmurun,KZ,52.4503,64.6311,13.82,95,96,5.61,overcast clouds
620,Vostok,RU,46.4856,135.8833,-1.16,97,76,2.68,broken clouds
621,Maputo,MZ,-25.9653,32.5892,67.68,88,100,16.11,light rain
622,Amahai,ID,-3.3333,128.9167,84.04,69,100,9.06,heavy intensity rain
623,Tombouctou,ML,20.0,-3.0,64.08,24,100,10.65,overcast clouds
624,Bakel,SN,14.905,-12.4568,79.3,32,100,15.73,overcast clouds
625,Kostek,RU,43.3439,46.8541,38.68,52,38,5.39,scattered clouds
626,Owando,CG,-0.4819,15.8999,74.39,59,97,2.37,overcast clouds
627,San Luis,AR,-33.295,-66.3356,70.97,30,2,10.83,clear sky
628,Paracatu,BR,-17.2222,-46.8747,66.85,96,100,0.69,overcast clouds
629,Erdenet,MN,49.0333,104.0833,4.96,87,18,2.46,few clouds
630,Novo Cruzeiro,BR,-17.4681,-41.8753,63.52,98,100,1.16,overcast clouds
631,Berdigestyakh,RU,62.0989,126.6992,-19.1,98,100,5.21,overcast clouds
632,Sulangan,PH,11.1373,123.7228,82.31,77,57,4.5,broken clouds
633,Boa Vista,BR,2.8197,-60.6733,76.98,83,0,11.5,clear sky
634,Mahanoro,MG,-19.9,48.8,83.3,58,81,5.55,broken clouds
635,Catuday,PH,16.2923,119.8062,80.78,68,100,14.03,overcast clouds
636,Jackson,US,42.4165,-122.8345,49.24,85,100,9.22,moderate rain
637,Chak Jhumra,PK,31.5678,73.1835,64.76,43,0,8.72,clear sky
638,Biryusinsk,RU,55.9634,97.8235,3.88,91,100,2.39,overcast clouds
639,Moshi,TZ,-3.35,37.3333,79.18,57,100,3.04,overcast clouds
640,Alice Springs,AU,-23.7,133.8833,92.75,40,75,16.11,broken clouds
641,Olafsvik,IS,64.8945,-23.7142,22.57,53,100,10.85,overcast clouds
642,La Ronge,CA,55.1001,-105.2842,-1.95,71,75,2.3,light snow
643,Prudentopolis,BR,-25.2131,-50.9778,55.96,91,1,3.56,clear sky
644,Ulagan,RU,50.6321,87.9563,22.82,89,100,1.19,overcast clouds
645,Ayan,RU,56.45,138.1667,0.61,82,76,5.73,broken clouds
646,Serra Branca,BR,-6.5333,-38.2667,74.86,72,6,4.47,clear sky
647,Masunga,BW,-20.6246,27.4488,84.52,27,11,15.57,few clouds
648,San Policarpo,PH,12.1791,125.5072,81.45,82,100,6.67,overcast clouds
649,Tagusao,PH,9.1924,117.8141,81.9,74,100,10.65,overcast clouds
650,Urubicha,BO,-15.3833,-62.95,69.33,99,100,1.21,overcast clouds
651,Biskamzha,RU,53.4497,89.5272,16.03,90,100,2.48,overcast clouds
652,Collipulli,CL,-37.95,-72.4333,50.49,93,12,5.39,few clouds
653,Asau,RO,46.4333,26.4,27.52,81,17,6.55,few clouds
654,Jeremie,HT,18.65,-74.1167,74.39,77,0,2.91,clear sky
655,San Ramon,US,37.7799,-121.978,55.85,95,100,12.66,overcast clouds
656,Chumikan,RU,54.7183,135.315,1.06,78,100,21.03,overcast clouds
657,Neyshabur,IR,36.2133,58.7958,40.84,42,0,1.83,clear sky
658,College,US,64.8569,-147.8028,-2.92,81,75,0.0,broken clouds
659,Hobyo,SO,5.3505,48.5268,81.93,62,7,18.16,clear sky
660,Chekalin,RU,54.0969,36.245,32.63,99,100,8.14,light snow
661,Innisfail,AU,-17.5333,146.0333,80.85,74,100,6.85,overcast clouds
662,Mon,IN,26.75,95.1,66.83,47,14,3.91,few clouds
663,Myaundzha,RU,63.0494,147.1858,-21.08,93,100,1.72,overcast clouds
664,Ascension,US,30.2169,-90.9001,67.01,95,72,9.55,broken clouds
665,Yuli,NG,9.6989,10.2744,62.73,28,4,9.19,clear sky
666,Presidencia Roque Saenz Pena,AR,-26.7852,-60.4388,68.4,45,0,2.8,clear sky
667,Krasnoselkup,RU,65.7,82.4667,-13.04,97,21,8.57,few clouds
668,Cozumel,MX,20.5083,-86.9458,75.27,94,40,0.0,scattered clouds
669,Griffith,US,41.5284,-87.4237,56.1,94,100,14.97,overcast clouds
670,Hearst,CA,49.6835,-83.6665,34.05,100,100,6.11,overcast clouds
671,El Negrito,HN,15.3167,-87.7,69.66,97,74,2.51,broken clouds
672,Garissa,KE,-0.4536,39.6401,84.11,51,82,11.43,broken clouds
673,Svetlogorsk,BY,52.6333,29.7333,34.68,99,100,7.58,overcast clouds
674,Magadan,RU,59.5667,150.8,-18.47,77,6,9.55,clear sky
675,Meiganga,CM,6.5167,14.3,67.57,30,100,7.23,overcast clouds
676,Venado Tuerto,AR,-33.7456,-61.9688,65.37,42,0,8.52,clear sky
677,Grand Gaube,MU,-20.0064,57.6608,84.6,57,6,7.0,clear sky
678,Tecoanapa,MX,16.5167,-98.75,73.74,73,100,4.16,overcast clouds
679,Ashland,US,40.8167,-82.2665,55.94,88,100,13.4,overcast clouds
680,Kandrian,PG,-6.2167,149.55,81.23,76,100,5.06,overcast clouds
681,Hovd,MN,48.0056,91.6419,5.41,82,99,2.19,overcast clouds
682,Kifri,IQ,34.6959,44.9661,54.86,48,0,2.26,clear sky
683,Batemans Bay,AU,-35.7167,150.1833,67.1,69,22,9.91,light rain
684,Okulovka,RU,58.4008,33.2908,28.65,96,100,7.4,snow
685,Mantua,IT,45.1667,10.7833,46.09,91,100,3.0,moderate rain
686,Tura,IN,25.5198,90.2201,70.9,34,3,4.12,clear sky
687,Honningsvag,NO,70.9821,25.9704,26.35,74,100,24.16,overcast clouds
688,Freeport,US,40.6576,-73.5832,44.96,78,100,3.44,overcast clouds
689,Yining,CN,29.0361,114.5636,49.78,45,1,2.8,clear sky
690,Port Victoria,KE,0.0939,33.9756,74.75,53,69,2.75,broken clouds
691,Denpasar,ID,-8.65,115.2167,87.46,70,40,5.75,moderate rain
692,Tolga,DZ,34.7222,5.3785,49.01,47,0,6.51,clear sky
693,Lakatoro,VU,-16.0999,167.4164,80.83,82,98,18.39,overcast clouds
694,Izacic,BA,44.875,15.7819,49.26,87,97,6.13,overcast clouds
695,Kurilsk,RU,45.2333,147.8833,25.3,68,99,14.56,overcast clouds
696,Nagutskoye,RU,44.4415,42.8762,26.82,43,60,2.77,broken clouds
697,Aban,RU,56.67,96.06,-2.43,98,92,2.55,overcast clouds
698,Tezu,IN,27.9167,96.1667,73.54,28,6,2.66,clear sky
